{
   "results" : [
      {
         "address_components" : [
            {
               "long_name" : "The Hong Kong Federation Of Youth Groups Building",
               "short_name" : "The Hong Kong Federation Of Youth Groups Building",
               "types" : [ "premise" ]
            },
            {
               "long_name" : "21",
               "short_name" : "21",
               "types" : [ "street_number" ]
            },
            {
               "long_name" : "Pak Fuk Road",
               "short_name" : "Pak Fuk Rd",
               "types" : [ "route" ]
            },
            {
               "long_name" : "Quarry Bay",
               "short_name" : "Quarry Bay",
               "types" : [ "neighborhood", "political" ]
            },
            {
               "long_name" : "Hong Kong",
               "short_name" : "Hong Kong",
               "types" : [ "locality", "political" ]
            },
            {
               "long_name" : "Hong Kong Island",
               "short_name" : "Hong Kong Island",
               "types" : [ "administrative_area_level_1", "political" ]
            },
            {
               "long_name" : "Hong Kong",
               "short_name" : "HK",
               "types" : [ "country", "political" ]
            }
         ],
         "formatted_address" : "The Hong Kong Federation Of Youth Groups Building, 21 Pak Fuk Road, Quarry Bay, Hong Kong",
         "geometry" : {
            "bounds" : {
               "northeast" : {
                  "lat" : 22.290465,
                  "lng" : 114.208212
               },
               "southwest" : {
                  "lat" : 22.290165,
                  "lng" : 114.207876
               }
            },
            "location" : {
               "lat" : 22.290318,
               "lng" : 114.2080748
            },
            "location_type" : "APPROXIMATE",
            "viewport" : {
               "northeast" : {
                  "lat" : 22.2916639802915,
                  "lng" : 114.2093929802915
               },
               "southwest" : {
                  "lat" : 22.2889660197085,
                  "lng" : 114.2066950197085
               }
            }
         },
         "partial_match" : true,
         "types" : [ "premise" ]
      }
   ],
   "status" : "OK"
}
